
{
  "nodes": [
    {"id": "A", "lat": -12.1213, "lon": -77.0305, "name": "Óvalo de Miraflores"},
    {"id": "B", "lat": -12.1225, "lon": -77.0300, "name": "Larco / Schell"},
    {"id": "C", "lat": -12.1245, "lon": -77.0290, "name": "Larco / Benavides"},
    {"id": "D", "lat": -12.1220, "lon": -77.0315, "name": "Diagonal / Schell"},
    {"id": "E", "lat": -12.1255, "lon": -77.0280, "name": "Benavides / La Paz"},
    {"id": "F", "lat": -12.1235, "lon": -77.0285, "name": "Schell / La Paz"}
  ],
  "edges": [
    {"source": "A", "target": "B", "length": 140, "peligrosidad": 4.5},
    {"source": "B", "target": "A", "length": 140, "peligrosidad": 4.5},

    {"source": "B", "target": "C", "length": 240, "peligrosidad": 4.8},
    {"source": "C", "target": "B", "length": 240, "peligrosidad": 4.8},
    
    {"source": "A", "target": "D", "length": 120, "peligrosidad": 4.0},
    {"source": "D", "target": "A", "length": 120, "peligrosidad": 4.0},
    
    {"source": "B", "target": "D", "length": 170, "peligrosidad": 3.5},
    {"source": "D", "target": "B", "length": 170, "peligrosidad": 3.5},
    
    {"source": "B", "target": "F", "length": 150, "peligrosidad": 2.0},
    {"source": "F", "target": "B", "length": 150, "peligrosidad": 2.0},
    
    {"source": "C", "target": "E", "length": 120, "peligrosidad": 5.0},
    {"source": "E", "target": "C", "length": 120, "peligrosidad": 5.0},
    
    {"source": "F", "target": "E", "length": 230, "peligrosidad": 1.5},
    {"source": "E", "target": "F", "length": 230, "peligrosidad": 1.5}
  ]
}
