
{
  "nodes": [
    { "id": "N01", "lat": -12.1245, "lon": -77.0370, "name": "Berlin/Leon" },
    { "id": "N02", "lat": -12.1246, "lon": -77.0358, "name": "Berlin/Roma" },
    { "id": "N03", "lat": -12.1247, "lon": -77.0348, "name": "Berlin/Mid" },
    { "id": "N04", "lat": -12.1248, "lon": -77.0338, "name": "Berlin/Bolognesi" },
    { "id": "N05", "lat": -12.1249, "lon": -77.0326, "name": "Berlin/Grau" },
    { "id": "N06", "lat": -12.1250, "lon": -77.0315, "name": "Berlin/Recavarren" },
    { "id": "N07", "lat": -12.1255, "lon": -77.0368, "name": "Galvez/Leon" },
    { "id": "N08", "lat": -12.1256, "lon": -77.0356, "name": "Galvez/Roma" },
    { "id": "N09", "lat": -12.1257, "lon": -77.0346, "name": "Galvez/Mid" },
    { "id": "N10", "lat": -12.1258, "lon": -77.0336, "name": "Galvez/Bolognesi" },
    { "id": "N11", "lat": -12.1259, "lon": -77.0324, "name": "Galvez/Grau" },
    { "id": "N12", "lat": -12.1260, "lon": -77.0313, "name": "Galvez/Recavarren" },
    { "id": "N13", "lat": -12.1265, "lon": -77.0362, "name": "Francia/Mid1" },
    { "id": "N14", "lat": -12.1266, "lon": -77.0354, "name": "Francia/Roma" },
    { "id": "N15", "lat": -12.1267, "lon": -77.0344, "name": "Francia/Mid2" },
    { "id": "N16", "lat": -12.1268, "lon": -77.0334, "name": "Francia/Bolognesi" },
    { "id": "N17", "lat": -12.1269, "lon": -77.0322, "name": "Francia/Grau" },
    { "id": "N18", "lat": -12.1270, "lon": -77.0311, "name": "Francia/Recavarren" },
    { "id": "N19", "lat": -12.1275, "lon": -77.0365, "name": "Cisneros/Madrid" },
    { "id": "N20", "lat": -12.1276, "lon": -77.0352, "name": "Madrid/Roma" },
    { "id": "N21", "lat": -12.1277, "lon": -77.0333, "name": "OvaloN" },
    { "id": "N22", "lat": -12.1279, "lon": -77.0336, "name": "OvaloW" },
    { "id": "N23", "lat": -12.1281, "lon": -77.0333, "name": "OvaloS" },
    { "id": "N24", "lat": -12.1279, "lon": -77.0330, "name": "OvaloE" },
    { "id": "N25", "lat": -12.1278, "lon": -77.0320, "name": "Madrid/Grau" },
    { "id": "N26", "lat": -12.1280, "lon": -77.0309, "name": "Madrid/Balta" },
    { "id": "N27", "lat": -12.1285, "lon": -77.0350, "name": "Cisneros/Italia" },
    { "id": "N28", "lat": -12.1288, "lon": -77.0331, "name": "Italia/Bolognesi" },
    { "id": "N29", "lat": -12.1289, "lon": -77.0318, "name": "Italia/Grau" },
    { "id": "N30", "lat": -12.1290, "lon": -77.0307, "name": "Italia/Balta" },
    { "id": "N31", "lat": -12.1295, "lon": -77.0338, "name": "Cisneros/Tripoli" },
    { "id": "N32", "lat": -12.1298, "lon": -77.0329, "name": "Tripoli/Bolognesi" },
    { "id": "N33", "lat": -12.1299, "lon": -77.0316, "name": "Tripoli/Grau" },
    { "id": "N34", "lat": -12.1300, "lon": -77.0305, "name": "Tripoli/Balta" }
  ],
  "edges": [
    { "source": "N01", "target": "N02", "length": 120, "peligrosidad": 2.5 },
    { "source": "N02", "target": "N03", "length": 100, "peligrosidad": 2.5 },
    { "source": "N03", "target": "N04", "length": 100, "peligrosidad": 2.5 },
    { "source": "N04", "target": "N05", "length": 120, "peligrosidad": 2.5 },
    { "source": "N05", "target": "N06", "length": 110, "peligrosidad": 2.5 },
    { "source": "N07", "target": "N08", "length": 120, "peligrosidad": 2.5 },
    { "source": "N08", "target": "N09", "length": 100, "peligrosidad": 2.5 },
    { "source": "N09", "target": "N10", "length": 100, "peligrosidad": 2.5 },
    { "source": "N10", "target": "N11", "length": 120, "peligrosidad": 2.5 },
    { "source": "N11", "target": "N12", "length": 110, "peligrosidad": 2.5 },
    { "source": "N18", "target": "N17", "length": 110, "peligrosidad": 2.5 },
    { "source": "N17", "target": "N16", "length": 120, "peligrosidad": 2.5 },
    { "source": "N16", "target": "N15", "length": 100, "peligrosidad": 2.5 },
    { "source": "N15", "target": "N14", "length": 100, "peligrosidad": 2.5 },
    { "source": "N14", "target": "N13", "length": 120, "peligrosidad": 2.5 },
    { "source": "N20", "target": "N22", "length": 180, "peligrosidad": 2.0 },
    { "source": "N26", "target": "N25", "length": 110, "peligrosidad": 2.0 },
    { "source": "N25", "target": "N24", "length": 120, "peligrosidad": 2.0 },
    { "source": "N28", "target": "N29", "length": 120, "peligrosidad": 2.0 },
    { "source": "N29", "target": "N30", "length": 110, "peligrosidad": 2.0 },
    { "source": "N34", "target": "N33", "length": 110, "peligrosidad": 2.0 },
    { "source": "N33", "target": "N32", "length": 120, "peligrosidad": 2.0 },
    { "source": "N07", "target": "N01", "length": 110, "peligrosidad": 2.0 },
    { "source": "N02", "target": "N08", "length": 110, "peligrosidad": 2.5 },
    { "source": "N08", "target": "N14", "length": 110, "peligrosidad": 2.5 },
    { "source": "N14", "target": "N20", "length": 110, "peligrosidad": 2.5 },
    { "source": "N04", "target": "N10", "length": 110, "peligrosidad": 4.0 },
    { "source": "N10", "target": "N04", "length": 110, "peligrosidad": 4.0 },
    { "source": "N10", "target": "N16", "length": 110, "peligrosidad": 4.0 },
    { "source": "N16", "target": "N10", "length": 110, "peligrosidad": 4.0 },
    { "source": "N16", "target": "N21", "length": 110, "peligrosidad": 4.0 },
    { "source": "N21", "target": "N16", "length": 110, "peligrosidad": 4.0 },
    { "source": "N23", "target": "N28", "length": 80, "peligrosidad": 4.0 },
    { "source": "N28", "target": "N23", "length": 80, "peligrosidad": 4.0 },
    { "source": "N28", "target": "N32", "length": 110, "peligrosidad": 4.0 },
    { "source": "N32", "target": "N28", "length": 110, "peligrosidad": 4.0 },
    { "source": "N05", "target": "N11", "length": 110, "peligrosidad": 3.5 },
    { "source": "N11", "target": "N17", "length": 110, "peligrosidad": 3.5 },
    { "source": "N17", "target": "N25", "length": 110, "peligrosidad": 3.5 },
    { "source": "N25", "target": "N29", "length": 110, "peligrosidad": 3.5 },
    { "source": "N29", "target": "N33", "length": 110, "peligrosidad": 3.5 },
    { "source": "N34", "target": "N30", "length": 110, "peligrosidad": 2.0 },
    { "source": "N30", "target": "N26", "length": 110, "peligrosidad": 2.0 },
    { "source": "N26", "target": "N18", "length": 110, "peligrosidad": 2.0 },
    { "source": "N18", "target": "N12", "length": 110, "peligrosidad": 2.0 },
    { "source": "N12", "target": "N06", "length": 110, "peligrosidad": 2.0 },
    { "source": "N21", "target": "N24", "length": 50, "peligrosidad": 3.0 },
    { "source": "N24", "target": "N23", "length": 50, "peligrosidad": 3.0 },
    { "source": "N23", "target": "N22", "length": 50, "peligrosidad": 3.0 },
    { "source": "N22", "target": "N21", "length": 50, "peligrosidad": 3.0 },
    { "source": "N19", "target": "N20", "length": 140, "peligrosidad": 1.5 },
    { "source": "N20", "target": "N19", "length": 140, "peligrosidad": 1.5 },
    { "source": "N19", "target": "N27", "length": 120, "peligrosidad": 1.0 },
    { "source": "N27", "target": "N19", "length": 120, "peligrosidad": 1.0 },
    { "source": "N27", "target": "N31", "length": 120, "peligrosidad": 1.0 },
    { "source": "N31", "target": "N27", "length": 120, "peligrosidad": 1.0 },
    { "source": "N31", "target": "N32", "length": 100, "peligrosidad": 1.5 },
    { "source": "N32", "target": "N31", "length": 100, "peligrosidad": 1.5 }
  ]
}
